{
  "jours": [
    {
      "day": 1,
      "points": [
        {
          "name": "Tour Eiffel",
          "coordinates": [2.2945, 48.8584],
          "photoQuery": "tour eiffel",
          "arrivalTime": "09:00",
          "departureTime": "10:30",
          "description": "Un des monuments les plus célèbres au monde. Situé à Paris, la Tour Eiffel est une prouesse architecturale."
        },
        {
          "name": "Musée du Louvre",
          "coordinates": [2.3364, 48.8606],
          "photoQuery": "louvre museum",
          "arrivalTime": "11:00",
          "departureTime": "12:30",
          "description": "Le musée du Louvre est le plus grand musée d'art au monde. Il abrite la célèbre Joconde."
        },
        {
          "name": "Pont Alexandre III",
          "coordinates": [2.3131, 48.8656],
          "photoQuery": "pont alexandre iii",
          "arrivalTime": "13:00",
          "departureTime": "14:30",
          "description": "Un pont élégant et orné reliant les Invalides et le Grand Palais."
        },
        {
          "name": "Place de la Concorde",
          "coordinates": [2.321, 48.8655],
          "photoQuery": "place de la concorde",
          "arrivalTime": "15:00",
          "departureTime": "16:00",
          "description": "Une des plus grandes places de Paris, riche en histoire."
        },
        {
          "name": "Jardin des Tuileries",
          "coordinates": [2.3266, 48.8636],
          "photoQuery": "jardin des tuileries",
          "arrivalTime": "16:30",
          "departureTime": "17:30",
          "description": "Un jardin classique entre le Louvre et la Place de la Concorde."
        },
        {
          "name": "Opéra Garnier",
          "coordinates": [2.3318, 48.8706],
          "photoQuery": "opera garnier",
          "arrivalTime": "18:00",
          "departureTime": "19:00",
          "description": "Un magnifique opéra au cœur de Paris avec une architecture grandiose."
        },
        {
          "name": "Les Invalides",
          "coordinates": [2.3124, 48.8566],
          "photoQuery": "les invalides",
          "arrivalTime": "19:30",
          "departureTime": "20:30",
          "description": "Un complexe historique avec le tombeau de Napoléon et des musées militaires."
        }
      ],
      "routes": {
        "mode": "walking",
        "path": [
          [2.2945, 48.8584],
          [2.3364, 48.8606],
          [2.3131, 48.8656],
          [2.321, 48.8655],
          [2.3266, 48.8636],
          [2.3318, 48.8706],
          [2.3124, 48.8566]
        ],
        "distance": "7 km",
        "duration": "4 h"
      }
    },
    {
      "day": 2,
      "points": [
        {
          "name": "Cathédrale Notre-Dame",
          "coordinates": [2.3499, 48.8529],
          "photoQuery": "notre dame cathedral",
          "arrivalTime": "09:00",
          "departureTime": "10:30",
          "description": "Cette cathédrale gothique est un chef-d'œuvre d'architecture et un symbole emblématique de Paris."
        },
        {
          "name": "Basilique du Sacré-Cœur",
          "coordinates": [2.3431, 48.8867],
          "photoQuery": "sacre coeur",
          "arrivalTime": "11:00",
          "departureTime": "12:30",
          "description": "Située au sommet de la butte Montmartre, cette basilique offre une vue panoramique spectaculaire de Paris."
        },
        {
          "name": "Parc des Buttes-Chaumont",
          "coordinates": [2.3824, 48.8809],
          "photoQuery": "buttes chaumont",
          "arrivalTime": "13:00",
          "departureTime": "14:30",
          "description": "Un parc pittoresque avec des collines, des grottes et des cascades."
        },
        {
          "name": "Musée Picasso",
          "coordinates": [2.3626, 48.8593],
          "photoQuery": "picasso museum",
          "arrivalTime": "15:00",
          "departureTime": "16:30",
          "description": "Un musée dédié à l'œuvre de Pablo Picasso."
        },
        {
          "name": "Place des Vosges",
          "coordinates": [2.3669, 48.8555],
          "photoQuery": "place des vosges",
          "arrivalTime": "17:00",
          "departureTime": "18:00",
          "description": "Un charmant square historique dans le quartier du Marais."
        },
        {
          "name": "Centre Pompidou",
          "coordinates": [2.3522, 48.8606],
          "photoQuery": "pompidou center",
          "arrivalTime": "18:30",
          "departureTime": "19:30",
          "description": "Un centre culturel célèbre pour son architecture audacieuse et ses expositions d'art contemporain."
        },
        {
          "name": "Jardin du Luxembourg",
          "coordinates": [2.3372, 48.8462],
          "photoQuery": "jardin du luxembourg",
          "arrivalTime": "20:00",
          "departureTime": "21:00",
          "description": "Un magnifique jardin au cœur de Paris, idéal pour une promenade ou un moment de détente."
        }
      ],
      "routes": {
        "mode": "driving",
        "path": [
          [2.3499, 48.8529],
          [2.3431, 48.8867],
          [2.3824, 48.8809],
          [2.3626, 48.8593],
          [2.3669, 48.8555],
          [2.3522, 48.8606],
          [2.3372, 48.8462]
        ],
        "distance": "8 km",
        "duration": "4 h"
      }
    },
    {
      "day": 3,
      "points": [
        {
          "name": "Panthéon",
          "coordinates": [2.346, 48.8462],
          "photoQuery": "pantheon paris",
          "arrivalTime": "09:00",
          "departureTime": "10:30",
          "description": "Un mausolée monumental abritant les tombes des grandes figures de l'histoire française."
        },
        {
          "name": "Parc Monceau",
          "coordinates": [2.308, 48.879],
          "photoQuery": "parc monceau",
          "arrivalTime": "11:00",
          "departureTime": "12:30",
          "description": "Un charmant parc avec une ambiance romantique et des structures historiques."
        },
        {
          "name": "Musée d'Orsay",
          "coordinates": [2.325, 48.8599],
          "photoQuery": "orsay museum",
          "arrivalTime": "13:00",
          "departureTime": "14:30",
          "description": "Un musée renommé pour ses collections d'art impressionniste et post-impressionniste."
        },
        {
          "name": "Les Invalides",
          "coordinates": [2.3124, 48.8566],
          "arrivalTime": "15:00",
          "departureTime": "16:30",
          "description": "Un complexe historique avec le tombeau de Napoléon et des musées militaires."
        },
        {
          "name": "Grand Palais",
          "coordinates": [2.3125, 48.8662],
          "photoQuery": "grand palais",
          "arrivalTime": "17:00",
          "departureTime": "18:30",
          "description": "Un site emblématique pour les expositions d'art et les événements culturels."
        },
        {
          "name": "Petit Palais",
          "coordinates": [2.3132, 48.8663],
          "photoQuery": "petit palais",
          "arrivalTime": "19:00",
          "departureTime": "20:00",
          "description": "Un musée d'art offrant une collection fascinante et une magnifique architecture."
        },
        {
          "name": "Place Vendôme",
          "coordinates": [2.3283, 48.867],
          "photoQuery": "place vendome",
          "arrivalTime": "20:30",
          "departureTime": "21:30",
          "description": "Une place célèbre pour ses boutiques de luxe et son architecture imposante."
        }
      ],
      "routes": {
        "mode": "walking",
        "path": [
          [2.346, 48.8462],
          [2.308, 48.879],
          [2.325, 48.8599],
          [2.3124, 48.8566],
          [2.3125, 48.8662],
          [2.3132, 48.8663],
          [2.3283, 48.867]
        ],
        "distance": "6 km",
        "duration": "3 h"
      }
    }
  ]
}
